{
  "type": "FeatureCollection",
  "features": [
    {
      "type": "Feature",
      "properties": {
        "name": "Gunung Bromo",
        "category": "Alam",
        "city": "Probolinggo",
        "desc": "Kawah aktif dengan pemandangan sunrise yang ikonik se-Indonesia",
        "rating": 4.9,
        "image": "🏔️"
      },
      "geometry": {
        "type": "Point",
        "coordinates": [112.9421, -7.9425]
      }
    },
    {
      "type": "Feature",
      "properties": {
        "name": "Kawah Ijen",
        "category": "Alam",
        "city": "Banyuwangi",
        "desc": "Fenomena blue fire dan danau asam terbesar di dunia",
        "rating": 4.8,
        "image": "🌋"
      },
      "geometry": {
        "type": "Point",
        "coordinates": [114.2428, -8.0584]
      }
    },
    {
      "type": "Feature",
      "properties": {
        "name": "Pantai Papuma",
        "category": "Pantai",
        "city": "Jember",
        "desc": "Pasir putih dan bebatuan eksotis dengan pemandangan sunset cantik",
        "rating": 4.5,
        "image": "🏝️"
      },
      "geometry": {
        "type": "Point",
        "coordinates": [113.7083, -8.4096]
      }
    },
    {
      "type": "Feature",
      "properties": {
        "name": "Pantai Pulau Merah",
        "category": "Pantai",
        "city": "Banyuwangi",
        "desc": "Bukit hijau di tengah laut yang bisa didaki",
        "rating": 4.6,
        "image": "🏖️"
      },
      "geometry": {
        "type": "Point",
        "coordinates": [114.3879, -8.5141]
      }
    },
    {
      "type": "Feature",
      "properties": {
        "name": "Madakaripura",
        "category": "Alam",
        "city": "Probolinggo",
        "desc": "Air terjun tertinggi di Jawa Timur dengan nuansa mistis",
        "rating": 4.9,
        "image": "💧"
      },
      "geometry": {
        "type": "Point",
        "coordinates": [112.9017, -7.9645]
      }
    },
    {
      "type": "Feature",
      "properties": {
        "name": "Candi Penataran",
        "category": "Sejarah",
        "city": "Blitar",
        "desc": "Kompleks candi Hindu terbesar di Jawa Timur",
        "rating": 4.4,
        "image": "🏛️"
      },
      "geometry": {
        "type": "Point",
        "coordinates": [112.3246, -8.0285]
      }
    },
    {
      "type": "Feature",
      "properties": {
        "name": "Museum Angkut",
        "category": "Keluarga",
        "city": "Malang",
        "desc": "Museum transportasi modern dengan koleksi mobil klasik",
        "rating": 4.6,
        "image": "🚗"
      },
      "geometry": {
        "type": "Point",
        "coordinates": [112.6212, -7.9839]
      }
    },
    {
      "type": "Feature",
      "properties": {
        "name": "Jatim Park 2",
        "category": "Keluarga",
        "city": "Malang",
        "desc": "Taman rekreasi lengkap dengan museum satwa",
        "rating": 4.5,
        "image": "🎢"
      },
      "geometry": {
        "type": "Point",
        "coordinates": [112.6233, -7.9825]
      }
    },
    {
      "type": "Feature",
      "properties": {
        "name": "Pantai Goa Cina",
        "category": "Pantai",
        "city": "Malang",
        "desc": "Pantai eksotis dengan goa alami di tepian",
        "rating": 4.3,
        "image": "🏝️"
      },
      "geometry": {
        "type": "Point",
        "coordinates": [112.5517, -8.4250]
      }
    },
    {
      "type": "Feature",
      "properties": {
        "name": "Taman Safari Prigen",
        "category": "Keluarga",
        "city": "Pasuruan",
        "desc": "Safari satwa liar dengan konsep drive-through",
        "rating": 4.7,
        "image": "🦁"
      },
      "geometry": {
        "type": "Point",
        "coordinates": [112.6169, -7.7355]
      }
    },
    {
      "type": "Feature",
      "properties": {
        "name": "Gua Maharani",
        "category": "Alam",
        "city": "Lamongan",
        "desc": "Gua stalaktit-stalagmit yang memukau",
        "rating": 4.2,
        "image": "🪨"
      },
      "geometry": {
        "type": "Point",
        "coordinates": [112.4156, -7.1250]
      }
    },
    {
      "type": "Feature",
      "properties": {
        "name": "Kelenteng Kwan Sing Bio",
        "category": "Religi",
        "city": "Tuban",
        "desc": "Klenteng terbesar di Jawa Timur dengan arsitektur megah",
        "rating": 4.4,
        "image": "🏯"
      },
      "geometry": {
        "type": "Point",
        "coordinates": [111.9730, -6.8860]
      }
    },
    {
      "type": "Feature",
      "properties": {
        "name": "Masjid Cheng Ho",
        "category": "Religi",
        "city": "Surabaya",
        "desc": "Masjid dengan arsitektur perpaduan Tionghoa-Islam",
        "rating": 4.5,
        "image": "🕌"
      },
      "geometry": {
        "type": "Point",
        "coordinates": [112.7359, -7.2588]
      }
    },
    {
      "type": "Feature",
      "properties": {
        "name": "Puncak B29",
        "category": "Alam",
        "city": "Lumajang",
        "desc": "Bukit savana eksotis di ketinggian",
        "rating": 4.6,
        "image": "⛰️"
      },
      "geometry": {
        "type": "Point",
        "coordinates": [113.0930, -8.0790]
      }
    },
    {
      "type": "Feature",
      "properties": {
        "name": "Tumpak Sewu",
        "category": "Alam",
        "city": "Lumajang",
        "desc": "Air terjun ribuan dengan pemandangan spektakuler",
        "rating": 4.9,
        "image": "💧"
      },
      "geometry": {
        "type": "Point",
        "coordinates": [113.0168, -8.1977]
      }
    },
    {
      "type": "Feature",
      "properties": {
        "name": "Pantai Klayar",
        "category": "Pantai",
        "city": "Pacitan",
        "desc": "Batu karang unik dan seruling alam",
        "rating": 4.5,
        "image": "🏝️"
      },
      "geometry": {
        "type": "Point",
        "coordinates": [111.0822, -8.2273]
      }
    },
    {
      "type": "Feature",
      "properties": {
        "name": "Goa Tabuhan",
        "category": "Alam",
        "city": "Pacitan",
        "desc": "Goa dengan akustik alami yang menakjubkan",
        "rating": 4.2,
        "image": "🎵"
      },
      "geometry": {
        "type": "Point",
        "coordinates": [111.1685, -8.1860]
      }
    },
    {
      "type": "Feature",
      "properties": {
        "name": "Surabaya Zoo",
        "category": "Keluarga",
        "city": "Surabaya",
        "desc": "Kebun binatang tertua dan terlengkap di Indonesia",
        "rating": 4.1,
        "image": "🐘"
      },
      "geometry": {
        "type": "Point",
        "coordinates": [112.7352, -7.2948]
      }
    },
    {
      "type": "Feature",
      "properties": {
        "name": "Monumen Kapal Selam",
        "category": "Sejarah",
        "city": "Surabaya",
        "desc": "Museum kapal selam asli yang bisa dijelajahi",
        "rating": 4.4,
        "image": "🚢"
      },
      "geometry": {
        "type": "Point",
        "coordinates": [112.7386, -7.2596]
      }
    },
    {
      "type": "Feature",
      "properties": {
        "name": "Pantai Balekambang",
        "category": "Pantai",
        "city": "Malang",
        "desc": "Pulau kecil dengan jembatan penghubung",
        "rating": 4.3,
        "image": "🏝️"
      },
      "geometry": {
        "type": "Point",
        "coordinates": [112.5145, -8.4189]
      }
    },
    {
      "type": "Feature",
      "properties": {
        "name": "Kampung Jodipan",
        "category": "Wisata Urban",
        "city": "Malang",
        "desc": "Kampung warna-warni instagramable",
        "rating": 4.6,
        "image": "🎨"
      },
      "geometry": {
        "type": "Point",
        "coordinates": [112.6324, -7.9803]
      }
    },
    {
      "type": "Feature",
      "properties": {
        "name": "Air Terjun Coban Rondo",
        "category": "Alam",
        "city": "Malang",
        "desc": "Air terjun dengan legenda asmara",
        "rating": 4.3,
        "image": "💧"
      },
      "geometry": {
        "type": "Point",
        "coordinates": [112.5821, -7.9542]
      }
    }
  ]
}