{
  "type": "FeatureCollection",
  "features": [
    {
      "type": "Feature",
      "properties": {
        "name": "Gunung Bromo",
        "category": "Alam",
        "city": "Probolinggo",
        "desc": "Kawah aktif dengan pemandangan sunrise yang ikonik se-Indonesia",
        "rating": 4.9,
        "image": "🏔️"
      },
      "geometry": {
        "type": "Point",
        "coordinates": [112.9421, -7.9425]
      }
    },
    {
      "type": "Feature",
      "properties": {
        "name": "Kawah Ijen",
        "category": "Alam",
        "city": "Banyuwangi",
        "desc": "Fenomena blue fire dan danau asam terbesar di dunia",
        "rating": 4.8,
        "image": "🌋"
      },
      "geometry": {
        "type": "Point",
        "coordinates": [114.2428, -8.0584]
      }
    },
    {
      "type": "Feature",
      "properties": {
        "name": "Pantai Papuma",
        "category": "Pantai",
        "city": "Jember",
        "desc": "Pasir putih dan bebatuan eksotis dengan pemandangan sunset cantik",
        "rating": 4.5,
        "image": "🏝️"
      },
      "geometry": {
        "type": "Point",
        "coordinates": [113.7083, -8.4096]
      }
    },
    {
      "type": "Feature",
      "properties": {
        "name": "Pantai Pulau Merah",
        "category": "Pantai",
        "city": "Banyuwangi",
        "desc": "Bukit hijau di tengah laut yang bisa didaki",
        "rating": 4.6,
        "image": "🏖️"
      },
      "geometry": {
        "type": "Point",
        "coordinates": [114.3879, -8.5141]
      }
    },
    {
      "type": "Feature",
      "properties": {
        "name": "Madakaripura",
        "category": "Alam",
        "city": "Probolinggo",
        "desc": "Air terjun tertinggi di Jawa Timur dengan nuansa mistis",
        "rating": 4.9,
        "image": "💧"
      },
      "geometry": {
        "type": "Point",
        "coordinates": [112.9017, -7.9645]
      }
    },
    {
      "type": "Feature",
      "properties": {
        "name": "Candi Penataran",
        "category": "Sejarah",
        "city": "Blitar",
        "desc": "Kompleks candi Hindu terbesar di Jawa Timur",
        "rating": 4.4,
        "image": "🏛️"
      },
      "geometry": {
        "type": "Point",
        "coordinates": [112.3246, -8.0285]
      }
    },
    {
      "type": "Feature",
      "properties": {
        "name": "Museum Angkut",
        "category": "Keluarga",
        "city": "Malang",
        "desc": "Museum transportasi modern dengan koleksi mobil klasik",
        "rating": 4.6,
        "image": "🚗"
      },
      "geometry": {
        "type": "Point",
        "coordinates": [112.6212, -7.9839]
      }
    },
    {
      "type": "Feature",
      "properties": {
        "name": "Jatim Park 2",
        "category": "Keluarga",
        "city": "Malang",
        "desc": "Taman rekreasi lengkap dengan museum satwa",
        "rating": 4.5,
        "image": "🎢"
      },
      "geometry": {
        "type": "Point",
        "coordinates": [112.6233, -7.9825]
      }
    },
    {
      "type": "Feature",
      "properties": {
        "name": "Pantai Goa Cina",
        "category": "Pantai",
        "city": "Malang",
        "desc": "Pantai eksotis dengan goa alami di tepian",
        "rating": 4.3,
        "image": "🏝️"
      },
      "geometry": {
        "type": "Point",
        "coordinates": [112.5517, -8.4250]
      }
    },
    {
      "type": "Feature",
      "properties": {
        "name": "Taman Safari Prigen",
        "category": "Keluarga",
        "city": "Pasuruan",
        "desc": "Safari satwa liar dengan konsep drive-through",
        "rating": 4.7,
        "image": "🦁"
      },
      "geometry": {
        "type": "Point",
        "coordinates": [112.6169, -7.7355]
      }
    },
    {
      "type": "Feature",
      "properties": {
        "name": "Gua Maharani",
        "category": "Alam",
        "city": "Lamongan",
        "desc": "Gua stalaktit-stalagmit yang memukau",
        "rating": 4.2,
        "image": "🪨"
      },
      "geometry": {
        "type": "Point",
        "coordinates": [112.4156, -7.1250]
      }
    },
    {
      "type": "Feature",
      "properties": {
        "name": "Kelenteng Kwan Sing Bio",
        "category": "Religi",
        "city": "Tuban",
        "desc": "Klenteng terbesar di Jawa Timur dengan arsitektur megah",
        "rating": 4.4,
        "image": "🏯"
      },
      "geometry": {
        "type": "Point",
        "coordinates": [111.9730, -6.8860]
      }
    },
    {
      "type": "Feature",
      "properties": {
        "name": "Masjid Cheng Ho",
        "category": "Religi",
        "city": "Surabaya",
        "desc": "Masjid dengan arsitektur perpaduan Tionghoa-Islam",
        "rating": 4.5,
        "image": "🕌"
      },
      "geometry": {
        "type": "Point",
        "coordinates": [112.7359, -7.2588]
      }
    },
    {
      "type": "Feature",
      "properties": {
        "name": "Puncak B29",
        "category": "Alam",
        "city": "Lumajang",
        "desc": "Bukit savana eksotis di ketinggian",
        "rating": 4.6,
        "image": "⛰️"
      },
      "geometry": {
        "type": "Point",
        "coordinates": [113.0930, -8.0790]
      }
    },
    {
      "type": "Feature",
      "properties": {
        "name": "Tumpak Sewu",
        "category": "Alam",
        "city": "Lumajang",
        "desc": "Air terjun ribuan dengan pemandangan spektakuler",
        "rating": 4.9,
        "image": "💧"
      },
      "geometry": {
        "type": "Point",
        "coordinates": [113.0168, -8.1977]
      }
    },
    {
      "type": "Feature",
      "properties": {
        "name": "Pantai Klayar",
        "category": "Pantai",
        "city": "Pacitan",
        "desc": "Batu karang unik dan seruling alam",
        "rating": 4.5,
        "image": "🏝️"
      },
      "geometry": {
        "type": "Point",
        "coordinates": [111.0822, -8.2273]
      }
    },
    {
      "type": "Feature",
      "properties": {
        "name": "Goa Tabuhan",
        "category": "Alam",
        "city": "Pacitan",
        "desc": "Goa dengan akustik alami yang menakjubkan",
        "rating": 4.2,
        "image": "🎵"
      },
      "geometry": {
        "type": "Point",
        "coordinates": [111.1685, -8.1860]
      }
    },
    {
      "type": "Feature",
      "properties": {
        "name": "Surabaya Zoo",
        "category": "Keluarga",
        "city": "Surabaya",
        "desc": "Kebun binatang tertua dan terlengkap di Indonesia",
        "rating": 4.1,
        "image": "🐘"
      },
      "geometry": {
        "type": "Point",
        "coordinates": [112.7352, -7.2948]
      }
    },
    {
      "type": "Feature",
      "properties": {
        "name": "Monumen Kapal Selam",
        "category": "Sejarah",
        "city": "Surabaya",
        "desc": "Museum kapal selam asli yang bisa dijelajahi",
        "rating": 4.4,
        "image": "🚢"
      },
      "geometry": {
        "type": "Point",
        "coordinates": [112.7386, -7.2596]
      }
    },
    {
      "type": "Feature",
      "properties": {
        "name": "Pantai Balekambang",
        "category": "Pantai",
        "city": "Malang",
        "desc": "Pulau kecil dengan jembatan penghubung",
        "rating": 4.3,
        "image": "🏝️"
      },
      "geometry": {
        "type": "Point",
        "coordinates": [112.5145, -8.4189]
      }
    },
    {
      "type": "Feature",
      "properties": {
        "name": "Kampung Jodipan",
        "category": "Wisata Urban",
        "city": "Malang",
        "desc": "Kampung warna-warni instagramable",
        "rating": 4.6,
        "image": "🎨"
      },
      "geometry": {
        "type": "Point",
        "coordinates": [112.6324, -7.9803]
      }
    },
    {
      "type": "Feature",
      "properties": {
        "name": "Air Terjun Coban Rondo",
        "category": "Alam",
        "city": "Malang",
        "desc": "Air terjun dengan legenda asmara",
        "rating": 4.3,
        "image": "💧"
      },
      "geometry": {
        "type": "Point",
        "coordinates": [112.5821, -7.9542]
      }
    },
    {
      "type": "Feature",
      "properties": {
        "name": "Candi Borobudur",
        "category": "Sejarah",
        "city": "Magelang",
        "desc": "Candi Buddha terbesar di dunia, Situs Warisan Dunia UNESCO",
        "rating": 4.9,
        "image": "🕌"
      },
      "geometry": {
        "type": "Point",
        "coordinates": [110.2038, -7.6079]
      }
    },
    {
      "type": "Feature",
      "properties": {
        "name": "Candi Prambanan",
        "category": "Sejarah",
        "city": "Sleman",
        "desc": "Kompleks candi Hindu terbesar di Indonesia, Situs Warisan Dunia UNESCO",
        "rating": 4.8,
        "image": "🏛️"
      },
      "geometry": {
        "type": "Point",
        "coordinates": [110.4919, -7.7522]
      }
    },
    {
      "type": "Feature",
      "properties": {
        "name": "Malioboro",
        "category": "Wisata Urban",
        "city": "Yogyakarta",
        "desc": "Jalan ikonik pusat belanja dan kuliner khas Yogyakarta",
        "rating": 4.7,
        "image": "🛍️"
      },
      "geometry": {
        "type": "Point",
        "coordinates": [110.3670, -7.8010]
      }
    },
    {
      "type": "Feature",
      "properties": {
        "name": "Keraton Yogyakarta",
        "category": "Sejarah",
        "city": "Yogyakarta",
        "desc": "Istana resmi Sultan Yogyakarta yang masih berfungsi",
        "rating": 4.6,
        "image": "🏰"
      },
      "geometry": {
        "type": "Point",
        "coordinates": [110.3583, -7.8054]
      }
    },
    {
      "type": "Feature",
      "properties": {
        "name": "Taman Sari",
        "category": "Sejarah",
        "city": "Yogyakarta",
        "desc": "Pesanggrahan air Sultan dengan arsitektur perpaduan Jawa-Portugis",
        "rating": 4.5,
        "image": "🏊"
      },
      "geometry": {
        "type": "Point",
        "coordinates": [110.3604, -7.8101]
      }
    },
    {
      "type": "Feature",
      "properties": {
        "name": "Lawang Sewu",
        "category": "Sejarah",
        "city": "Semarang",
        "desc": "Bangunan kolonial bersejarah dengan arsitektur Art Deco",
        "rating": 4.6,
        "image": "🏛️"
      },
      "geometry": {
        "type": "Point",
        "coordinates": [110.4098, -6.9836]
      }
    },
    {
      "type": "Feature",
      "properties": {
        "name": "Kota Lama Semarang",
        "category": "Sejarah",
        "city": "Semarang",
        "desc": "Kawasan pusat bersejarah dengan bangunan kolonial Belanda",
        "rating": 4.5,
        "image": "🏘️"
      },
      "geometry": {
        "type": "Point",
        "coordinates": [110.3947, -6.9675]
      }
    },
    {
      "type": "Feature",
      "properties": {
        "name": "Saloka Theme Park",
        "category": "Keluarga",
        "city": "Semarang",
        "desc": "Taman hiburan dengan wahana seru dan zona edukasi",
        "rating": 4.4,
        "image": "🎢"
      },
      "geometry": {
        "type": "Point",
        "coordinates": [110.4058, -7.1078]
      }
    },
    {
      "type": "Feature",
      "properties": {
        "name": "Museum Ullen Sentalu",
        "category": "Budaya",
        "city": "Sleman",
        "desc": "Museum budaya Jawa dengan koleksi batik kuno dan sejarah Mataram",
        "rating": 4.7,
        "image": "🏛️"
      },
      "geometry": {
        "type": "Point",
        "coordinates": [110.3167, -7.6167]
      }
    },
    {
      "type": "Feature",
      "properties": {
        "name": "Ratu Boko",
        "category": "Sejarah",
        "city": "Sleman",
        "desc": "Situs keraton kuno dengan pemandangan sunset terbaik ke arah Prambanan",
        "rating": 4.5,
        "image": "🌅"
      },
      "geometry": {
        "type": "Point",
        "coordinates": [110.4831, -7.7707]
      }
    },
    {
      "type": "Feature",
      "properties": {
        "name": "Punthuk Setumbu",
        "category": "Alam",
        "city": "Magelang",
        "desc": "Bukit dengan pemandangan sunrise Candi Borobudur dan Gunung Merapi",
        "rating": 4.8,
        "image": "🌄"
      },
      "geometry": {
        "type": "Point",
        "coordinates": [110.1981, -7.6017]
      }
    },
    {
      "type": "Feature",
      "properties": {
        "name": "Goa Jomblang",
        "category": "Alam",
        "city": "Gunung Kidul",
        "desc": "Goa vertikal dengan fenomena cahaya surga yang spektakuler",
        "rating": 4.8,
        "image": "🕯️"
      },
      "geometry": {
        "type": "Point",
        "coordinates": [110.5865, -8.0787]
      }
    },
    {
      "type": "Feature",
      "properties": {
        "name": "Goa Pindul",
        "category": "Alam",
        "city": "Gunung Kidul",
        "desc": "Goa sungai dengan aktivitas cave tubing yang seru",
        "rating": 4.4,
        "image": "🌊"
      },
      "geometry": {
        "type": "Point",
        "coordinates": [110.5254, -7.9298]
      }
    },
    {
      "type": "Feature",
      "properties": {
        "name": "Pantai Indrayanti",
        "category": "Pantai",
        "city": "Gunung Kidul",
        "desc": "Pantai pasir putih eksotis dengan perbukitan karst di sekitarnya",
        "rating": 4.3,
        "image": "🏝️"
      },
      "geometry": {
        "type": "Point",
        "coordinates": [110.5407, -8.0189]
      }
    },
    {
      "type": "Feature",
      "properties": {
        "name": "Kampung Pelangi",
        "category": "Wisata Urban",
        "city": "Semarang",
        "desc": "Kampung warna-warni yang instagramable dan fotogenik",
        "rating": 4.2,
        "image": "🎨"
      },
      "geometry": {
        "type": "Point",
        "coordinates": [110.4150, -6.9622]
      }
    },
    {
      "type": "Feature",
      "properties": {
        "name": "Gunung Merapi",
        "category": "Alam",
        "city": "Sleman",
        "desc": "Gunung berapi paling aktif di Indonesia dengan tur lava jeep",
        "rating": 4.7,
        "image": "🌋"
      },
      "geometry": {
        "type": "Point",
        "coordinates": [110.4410, -7.5400]
      }
    },
    {
      "type": "Feature",
      "properties": {
        "name": "Dieng Plateau",
        "category": "Alam",
        "city": "Banjarnegara",
        "desc": "Dataran tinggi dengan kawah berwarna dan candi Hindu tertua",
        "rating": 4.6,
        "image": "🏔️"
      },
      "geometry": {
        "type": "Point",
        "coordinates": [109.9212, -7.2055]
      }
    },
    {
      "type": "Feature",
      "properties": {
        "name": "Goa Lawa",
        "category": "Alam",
        "city": "Purbalingga",
        "desc": "Goa dengan stalaktit dan stalagmit alami yang memukau",
        "rating": 4.2,
        "image": "🪨"
      },
      "geometry": {
        "type": "Point",
        "coordinates": [109.3672, -7.2819]
      }
    },
    {
      "type": "Feature",
      "properties": {
        "name": "Goa Petruk",
        "category": "Alam",
        "city": "Kebumen",
        "desc": "Goa dengan tiga lantai dan ornamen stalaktit berwarna-warni",
        "rating": 4.3,
        "image": "🪨"
      },
      "geometry": {
        "type": "Point",
        "coordinates": [109.5216, -7.5765]
      }
    },
    {
      "type": "Feature",
      "properties": {
        "name": "HeHa Sky View",
        "category": "Wisata Urban",
        "city": "Sleman",
        "desc": "Destinasi hits dengan spot foto ikonik dan pemandangan kota",
        "rating": 4.3,
        "image": "📸"
      },
      "geometry": {
        "type": "Point",
        "coordinates": [110.2917, -7.7000]
      }
    },
    {
      "type": "Feature",
      "properties": {
        "name": "Mangkunegaran Palace",
        "category": "Sejarah",
        "city": "Surakarta",
        "desc": "Istana Kadipaten Mangkunegaran dengan arsitektur Jawa-Eropa",
        "rating": 4.4,
        "image": "🏰"
      },
      "geometry": {
        "type": "Point",
        "coordinates": [110.8317, -7.5683]
      }
    },
    {
      "type": "Feature",
      "properties": {
        "name": "Pasar Klewer",
        "category": "Wisata Urban",
        "city": "Surakarta",
        "desc": "Pasar batik terbesar di Solo dengan ribuan pilihan",
        "rating": 4.1,
        "image": "🧵"
      },
      "geometry": {
        "type": "Point",
        "coordinates": [110.8324, -7.5712]
      }
    },
    {
      "type": "Feature",
      "properties": {
        "name": "Candi Mendut",
        "category": "Sejarah",
        "city": "Magelang",
        "desc": "Candi Buddha dengan arca Buddha terbesar di Indonesia",
        "rating": 4.4,
        "image": "🕌"
      },
      "geometry": {
        "type": "Point",
        "coordinates": [110.2174, -7.6047]
      }
    },
    {
      "type": "Feature",
      "properties": {
        "name": "Kebun Teh Nglinggo",
        "category": "Alam",
        "city": "Kulon Progo",
        "desc": "Perkebunan teh hijau dengan pemandangan perbukitan menawan",
        "rating": 4.3,
        "image": "🍃"
      },
      "geometry": {
        "type": "Point",
        "coordinates": [110.1733, -7.6922]
      }
    },
    {
      "type": "Feature",
      "properties": {
        "name": "Curug Banyu Nibo",
        "category": "Alam",
        "city": "Pacitan",
        "desc": "Air terjun hijau dengan air sangat jernih di tengah hutan",
        "rating": 4.2,
        "image": "💧"
      },
      "geometry": {
        "type": "Point",
        "coordinates": [111.1914, -8.2475]
      }
    },
    {
      "type": "Feature",
      "properties": {
        "name": "Desa Wisata Paranggupito",
        "category": "Budaya",
        "city": "Wonogiri",
        "desc": "Desa wisata dengan keindahan alam dan kearifan lokal autentik",
        "rating": 4.1,
        "image": "🏡"
      },
      "geometry": {
        "type": "Point",
        "coordinates": [111.0183, -7.9925]
      }
    }
  ]
}
